{
    "takeaways": [
        {
            "name": "Ben's Burgers",
            "offers": [ "Free side of fries with each burger every Friday", "5% student discount for students on Wednesdays" ],
            "description": [ "unhealthy", "quick" ],
            "openingHours": [
                {
                    "day": "Monday",
                    "hours": "11AM to 10PM"
                },
                {
                    "day": "Tuesday",
                    "hours": "11AM to 9PM"
                },
                {
                    "day": "Wednesday",
                    "hours": "10AM to 10PM"
                },
                {
                    "day": "Thursday",
                    "hours": "11AM to 10PM"
                },
                {
                    "day": "Friday",
                    "hours": "10AM to 11PM"
                },
                {
                    "day": "Saturday",
                    "hours": "10AM to 11PM"
                },
                {
                    "day": "Sunday",
                    "hours": "closed"
                }
            ]
        },
        {
            "name": "The Chicken Shed",
            "offers": [ "Every Thursday when you buy a bucket of wings, we'll throw in an extra bucket for free", "10% off on Fridays" ],
            "description": [ "unhealthy", "quick" ],
            "openingHours": [
                {
                    "day": "Monday",
                    "hours": "9AM to 9PM"
                },
                {
                    "day": "Tuesday",
                    "horus": "11AM to 9PM"
                },
                {
                    "day": "Wednesday",
                    "hours": "10AM to 10PM"
                },
                {
                    "day": "Thursday",
                    "hours": "11AM to 10PM"
                },
                {
                    "day": "Friday",
                    "hours": "10AM to 11PM"
                },
                {
                    "day": "Saturday",
                    "hours": "10AM to 11PM"
                },
                {
                    "day": "Sunday",
                    "hours": "11AM to 4PM"
                }
            ]
        },
        {
            "name": "Joe's Pizzeria",
            "offers": [ "Buy one large pizza, get the second half price every Tuesday", "15% off for students" ],
            "description": [ "unhealthy" ],
            "openingHours": [
                {
                    "day": "Monday",
                    "hours": "10AM to 10PM"
                },
                {
                    "day": "Tuesday",
                    "hours": "closed"
                },
                {
                    "day": "Wednesday",
                    "hours": "10AM to 10PM"
                },
                {
                    "day": "Thursday",
                    "hours": "11AM to 10PM"
                },
                {
                    "day": "Friday",
                    "hours": "10AM to 11PM"
                },
                {
                    "day": "Saturday",
                    "hours": "10AM to 11PM"
                },
                {
                    "day": "Sunday",
                    "hours": "closed"
                }
            ]
        },
        {
            "name": "Dave's Desserts",
            "offers": [ "Every Tuesday when you buy 2 doughnuts you get another half price", "Get 2 desserts for the price of 3 on Thursdays" ],
            "description": [ "unhealthy", "sugary" ],
            "openingHours": [
                {
                    "day": "Monday",
                    "hours": "11AM to 11PM"
                },
                {
                    "day": "Tuesday",
                    "hours": "closed"
                },
                {
                    "day": "Wednesday",
                    "hours": "11AM to 10PM"
                },
                {
                    "day": "Thursday",
                    "hours": "11AM to 10PM"
                },
                {
                    "day": "Friday",
                    "hours": "11AM to 11PM"
                },
                {
                    "day": "Saturday",
                    "hours": "11AM to 11PM"
                },
                {
                    "day": "Sunday",
                    "hours": "closed"
                }
            ]
        },
        {
            "name": "Sid's Sandwich Shop",
            "offers": [ "30% student discount", "On Mondays buy a sandwich and get a drink free", "Get a kids sandwich free when you spend Â£10 or more" ],
            "description": [ "healthy", "quick" ],
            "openingHours": [
                {
                    "day": "Monday",
                    "hours": "10AM to 6PM"
                },
                {
                    "day": "Tuesday",
                    "hours": "10AM to 5PM"
                },
                {
                    "day": "Wednesday",
                    "hours": "10AM to 6PM"
                },
                {
                    "day": "Thursday",
                    "hours": "11AM to 5PM"
                },
                {
                    "day": "Friday",
                    "hours": "10AM to 5PM"
                },
                {
                    "day": "Saturday",
                    "hours": "closed"
                },
                {
                    "day": "Sunday",
                    "hours": "closed"
                }
            ]
        }
    ]
}